[{"star":"五星商户","city":"上海","reviewCount":"759","avgPrice":"￥112","name":"南瓜车造型(金沙江路店)","location":"月星环球港","type":"美发","addr":"金沙江路1685号巴黎春天4楼402-1","url":"http://www.dianping.com/shop/67385435"},{"star":"五星商户","city":"上海","reviewCount":"287","avgPrice":"￥118","name":"必胜客(上海中心店)","location":"陆家嘴","type":"西餐","addr":"上海市银城中路501号B2-1室","url":"http://www.dianping.com/shop/74602502"},{"star":"准五星商户","city":"上海","reviewCount":"1564","avgPrice":"￥317","name":"彩箸铁板烧·日本料理","location":"虹桥","type":"日本菜","addr":"虹桥路1665号星空广场6楼A区602-603号","url":"http://www.dianping.com/shop/21334012"},{"star":"准五星商户","city":"上海","reviewCount":"4550","avgPrice":"￥119","name":"高兴一锅 汕头牛肉火锅(上海虹口...","location":"虹口足球场","type":"火锅","addr":"东江湾路444号虹口足球场5号门","url":"http://www.dianping.com/shop/24291947"},{"star":"准五星商户","city":"上海","reviewCount":"2532","avgPrice":"￥92","name":"喜来稀肉(万达广场宝山店)","location":"庙行/共康","type":"韩国料理","addr":"一二八纪念路988弄万达广场金街2层240-241","url":"http://www.dianping.com/shop/23657253"},{"star":"准五星商户","city":"上海","reviewCount":"2585","avgPrice":"￥176","name":"海鲜后宫","location":"通河/泗塘","type":"日本菜","addr":"宝山万达金街246号","url":"http://www.dianping.com/shop/17184484"},{"star":"准五星商户","city":"上海","reviewCount":"851","avgPrice":"￥81","name":"太福水煮鱼(亿丰时代广场店)","location":"三林地区","type":"川菜","addr":"云台路亿丰时代广场2F208号","url":"http://www.dianping.com/shop/44014085"},{"star":"准五星商户","city":"上海","reviewCount":"339","avgPrice":"￥86","name":"必胜客(香港广场店)","location":"淮海路","type":"西餐","addr":"上海市淮海中路282号香港广场商场北座NL3-07室","url":"http://www.dianping.com/shop/65930766"},{"star":"准五星商户","city":"上海","reviewCount":"223","avgPrice":"￥195","name":"大桶大足浴(张江路店)","location":"张江","type":"足疗按摩","addr":"张江路625号","url":"http://www.dianping.com/shop/24503030"},{"star":"四星商户","city":"上海","reviewCount":"4018","avgPrice":"￥51","name":"彩泥·滇游记-云南过桥米线(龙之...","location":"虹口足球场","type":"云南菜","addr":"西江湾路388号龙之梦购物中心B2层","url":"http://www.dianping.com/shop/43557139"},{"star":"准五星商户","city":"上海","reviewCount":"59","avgPrice":"￥32","name":"全日志 FULLTIME COFFEE","location":"打浦桥","type":"咖啡厅","addr":"徐家汇路618号日月光中心地下2层亚洲馆29号","url":"http://www.dianping.com/shop/69945601"},{"star":"准五星商户","city":"上海","reviewCount":"671","avgPrice":"￥198","name":"焱格格蔬食料理火锅(星空明星店)","location":"虹桥","type":"素菜","addr":"水城路18号星空广场二楼A区202-204（水城路必胜客楼上，近虹桥路）","url":"http://www.dianping.com/shop/44237720"},{"star":"准五星商户","city":"上海","reviewCount":"1713","avgPrice":"￥87","name":"崇味牛排(万达广场宝山店)","location":"庙行/共康","type":"西餐","addr":"宝山万达广场金街2楼248号","url":"http://www.dianping.com/shop/22355808"},{"star":"四星商户","city":"上海","reviewCount":"3456","avgPrice":"￥25","name":"星星炸鸡(日月光中心广场店)","location":"打浦桥","type":"小吃快餐","addr":"徐家汇路618号日月光中心广场B2楼","url":"http://www.dianping.com/shop/18151858"},{"star":"准五星商户","city":"上海","reviewCount":"252","avgPrice":"￥69","name":"必胜客(顾村正大店)","location":"顾村公园","type":"西餐","addr":"上海市陆翔路111弄正大乐城商铺","url":"http://www.dianping.com/shop/38103632"}]
[{"star":"五星商户","city":"上海","reviewCount":"759","avgPrice":"￥112","name":"南瓜车造型(金沙江路店)","location":"月星环球港","type":"美发","addr":"金沙江路1685号巴黎春天4楼402-1","url":"http://www.dianping.com/shop/67385435"},{"star":"五星商户","city":"上海","reviewCount":"287","avgPrice":"￥118","name":"必胜客(上海中心店)","location":"陆家嘴","type":"西餐","addr":"上海市银城中路501号B2-1室","url":"http://www.dianping.com/shop/74602502"},{"star":"准五星商户","city":"上海","reviewCount":"1564","avgPrice":"￥317","name":"彩箸铁板烧·日本料理","location":"虹桥","type":"日本菜","addr":"虹桥路1665号星空广场6楼A区602-603号","url":"http://www.dianping.com/shop/21334012"},{"star":"准五星商户","city":"上海","reviewCount":"4550","avgPrice":"￥119","name":"高兴一锅 汕头牛肉火锅(上海虹口...","location":"虹口足球场","type":"火锅","addr":"东江湾路444号虹口足球场5号门","url":"http://www.dianping.com/shop/24291947"},{"star":"准五星商户","city":"上海","reviewCount":"2532","avgPrice":"￥92","name":"喜来稀肉(万达广场宝山店)","location":"庙行/共康","type":"韩国料理","addr":"一二八纪念路988弄万达广场金街2层240-241","url":"http://www.dianping.com/shop/23657253"},{"star":"准五星商户","city":"上海","reviewCount":"2585","avgPrice":"￥176","name":"海鲜后宫","location":"通河/泗塘","type":"日本菜","addr":"宝山万达金街246号","url":"http://www.dianping.com/shop/17184484"},{"star":"准五星商户","city":"上海","reviewCount":"851","avgPrice":"￥81","name":"太福水煮鱼(亿丰时代广场店)","location":"三林地区","type":"川菜","addr":"云台路亿丰时代广场2F208号","url":"http://www.dianping.com/shop/44014085"},{"star":"准五星商户","city":"上海","reviewCount":"339","avgPrice":"￥86","name":"必胜客(香港广场店)","location":"淮海路","type":"西餐","addr":"上海市淮海中路282号香港广场商场北座NL3-07室","url":"http://www.dianping.com/shop/65930766"},{"star":"准五星商户","city":"上海","reviewCount":"223","avgPrice":"￥195","name":"大桶大足浴(张江路店)","location":"张江","type":"足疗按摩","addr":"张江路625号","url":"http://www.dianping.com/shop/24503030"},{"star":"四星商户","city":"上海","reviewCount":"4018","avgPrice":"￥51","name":"彩泥·滇游记-云南过桥米线(龙之...","location":"虹口足球场","type":"云南菜","addr":"西江湾路388号龙之梦购物中心B2层","url":"http://www.dianping.com/shop/43557139"},{"star":"准五星商户","city":"上海","reviewCount":"59","avgPrice":"￥32","name":"全日志 FULLTIME COFFEE","location":"打浦桥","type":"咖啡厅","addr":"徐家汇路618号日月光中心地下2层亚洲馆29号","url":"http://www.dianping.com/shop/69945601"},{"star":"准五星商户","city":"上海","reviewCount":"671","avgPrice":"￥198","name":"焱格格蔬食料理火锅(星空明星店)","location":"虹桥","type":"素菜","addr":"水城路18号星空广场二楼A区202-204（水城路必胜客楼上，近虹桥路）","url":"http://www.dianping.com/shop/44237720"},{"star":"准五星商户","city":"上海","reviewCount":"1713","avgPrice":"￥87","name":"崇味牛排(万达广场宝山店)","location":"庙行/共康","type":"西餐","addr":"宝山万达广场金街2楼248号","url":"http://www.dianping.com/shop/22355808"},{"star":"四星商户","city":"上海","reviewCount":"3456","avgPrice":"￥25","name":"星星炸鸡(日月光中心广场店)","location":"打浦桥","type":"小吃快餐","addr":"徐家汇路618号日月光中心广场B2楼","url":"http://www.dianping.com/shop/18151858"},{"star":"准五星商户","city":"上海","reviewCount":"252","avgPrice":"￥69","name":"必胜客(顾村正大店)","location":"顾村公园","type":"西餐","addr":"上海市陆翔路111弄正大乐城商铺","url":"http://www.dianping.com/shop/38103632"}]
[{"star":"五星商户","city":"上海","reviewCount":"759","avgPrice":"￥112","name":"南瓜车造型(金沙江路店)","location":"月星环球港","type":"美发","addr":"金沙江路1685号巴黎春天4楼402-1","url":"http://www.dianping.com/shop/67385435"},{"star":"五星商户","city":"上海","reviewCount":"287","avgPrice":"￥118","name":"必胜客(上海中心店)","location":"陆家嘴","type":"西餐","addr":"上海市银城中路501号B2-1室","url":"http://www.dianping.com/shop/74602502"},{"star":"准五星商户","city":"上海","reviewCount":"1564","avgPrice":"￥317","name":"彩箸铁板烧·日本料理","location":"虹桥","type":"日本菜","addr":"虹桥路1665号星空广场6楼A区602-603号","url":"http://www.dianping.com/shop/21334012"},{"star":"准五星商户","city":"上海","reviewCount":"4550","avgPrice":"￥119","name":"高兴一锅 汕头牛肉火锅(上海虹口...","location":"虹口足球场","type":"火锅","addr":"东江湾路444号虹口足球场5号门","url":"http://www.dianping.com/shop/24291947"},{"star":"准五星商户","city":"上海","reviewCount":"2532","avgPrice":"￥92","name":"喜来稀肉(万达广场宝山店)","location":"庙行/共康","type":"韩国料理","addr":"一二八纪念路988弄万达广场金街2层240-241","url":"http://www.dianping.com/shop/23657253"},{"star":"准五星商户","city":"上海","reviewCount":"2585","avgPrice":"￥176","name":"海鲜后宫","location":"通河/泗塘","type":"日本菜","addr":"宝山万达金街246号","url":"http://www.dianping.com/shop/17184484"},{"star":"准五星商户","city":"上海","reviewCount":"851","avgPrice":"￥81","name":"太福水煮鱼(亿丰时代广场店)","location":"三林地区","type":"川菜","addr":"云台路亿丰时代广场2F208号","url":"http://www.dianping.com/shop/44014085"},{"star":"准五星商户","city":"上海","reviewCount":"339","avgPrice":"￥86","name":"必胜客(香港广场店)","location":"淮海路","type":"西餐","addr":"上海市淮海中路282号香港广场商场北座NL3-07室","url":"http://www.dianping.com/shop/65930766"},{"star":"准五星商户","city":"上海","reviewCount":"223","avgPrice":"￥195","name":"大桶大足浴(张江路店)","location":"张江","type":"足疗按摩","addr":"张江路625号","url":"http://www.dianping.com/shop/24503030"},{"star":"四星商户","city":"上海","reviewCount":"4018","avgPrice":"￥51","name":"彩泥·滇游记-云南过桥米线(龙之...","location":"虹口足球场","type":"云南菜","addr":"西江湾路388号龙之梦购物中心B2层","url":"http://www.dianping.com/shop/43557139"},{"star":"准五星商户","city":"上海","reviewCount":"59","avgPrice":"￥32","name":"全日志 FULLTIME COFFEE","location":"打浦桥","type":"咖啡厅","addr":"徐家汇路618号日月光中心地下2层亚洲馆29号","url":"http://www.dianping.com/shop/69945601"},{"star":"准五星商户","city":"上海","reviewCount":"671","avgPrice":"￥198","name":"焱格格蔬食料理火锅(星空明星店)","location":"虹桥","type":"素菜","addr":"水城路18号星空广场二楼A区202-204（水城路必胜客楼上，近虹桥路）","url":"http://www.dianping.com/shop/44237720"},{"star":"准五星商户","city":"上海","reviewCount":"1713","avgPrice":"￥87","name":"崇味牛排(万达广场宝山店)","location":"庙行/共康","type":"西餐","addr":"宝山万达广场金街2楼248号","url":"http://www.dianping.com/shop/22355808"},{"star":"四星商户","city":"上海","reviewCount":"3456","avgPrice":"￥25","name":"星星炸鸡(日月光中心广场店)","location":"打浦桥","type":"小吃快餐","addr":"徐家汇路618号日月光中心广场B2楼","url":"http://www.dianping.com/shop/18151858"},{"star":"准五星商户","city":"上海","reviewCount":"252","avgPrice":"￥69","name":"必胜客(顾村正大店)","location":"顾村公园","type":"西餐","addr":"上海市陆翔路111弄正大乐城商铺","url":"http://www.dianping.com/shop/38103632"}]
[{"star":"五星商户","city":"上海","reviewCount":"759","avgPrice":"￥112","name":"南瓜车造型(金沙江路店)","location":"月星环球港","type":"美发","addr":"金沙江路1685号巴黎春天4楼402-1","url":"http://www.dianping.com/shop/67385435"},{"star":"五星商户","city":"上海","reviewCount":"287","avgPrice":"￥118","name":"必胜客(上海中心店)","location":"陆家嘴","type":"西餐","addr":"上海市银城中路501号B2-1室","url":"http://www.dianping.com/shop/74602502"},{"star":"准五星商户","city":"上海","reviewCount":"1564","avgPrice":"￥317","name":"彩箸铁板烧·日本料理","location":"虹桥","type":"日本菜","addr":"虹桥路1665号星空广场6楼A区602-603号","url":"http://www.dianping.com/shop/21334012"},{"star":"准五星商户","city":"上海","reviewCount":"4550","avgPrice":"￥119","name":"高兴一锅 汕头牛肉火锅(上海虹口...","location":"虹口足球场","type":"火锅","addr":"东江湾路444号虹口足球场5号门","url":"http://www.dianping.com/shop/24291947"},{"star":"准五星商户","city":"上海","reviewCount":"2532","avgPrice":"￥92","name":"喜来稀肉(万达广场宝山店)","location":"庙行/共康","type":"韩国料理","addr":"一二八纪念路988弄万达广场金街2层240-241","url":"http://www.dianping.com/shop/23657253"},{"star":"准五星商户","city":"上海","reviewCount":"2585","avgPrice":"￥176","name":"海鲜后宫","location":"通河/泗塘","type":"日本菜","addr":"宝山万达金街246号","url":"http://www.dianping.com/shop/17184484"},{"star":"准五星商户","city":"上海","reviewCount":"851","avgPrice":"￥81","name":"太福水煮鱼(亿丰时代广场店)","location":"三林地区","type":"川菜","addr":"云台路亿丰时代广场2F208号","url":"http://www.dianping.com/shop/44014085"},{"star":"准五星商户","city":"上海","reviewCount":"339","avgPrice":"￥86","name":"必胜客(香港广场店)","location":"淮海路","type":"西餐","addr":"上海市淮海中路282号香港广场商场北座NL3-07室","url":"http://www.dianping.com/shop/65930766"},{"star":"准五星商户","city":"上海","reviewCount":"223","avgPrice":"￥195","name":"大桶大足浴(张江路店)","location":"张江","type":"足疗按摩","addr":"张江路625号","url":"http://www.dianping.com/shop/24503030"},{"star":"四星商户","city":"上海","reviewCount":"4018","avgPrice":"￥51","name":"彩泥·滇游记-云南过桥米线(龙之...","location":"虹口足球场","type":"云南菜","addr":"西江湾路388号龙之梦购物中心B2层","url":"http://www.dianping.com/shop/43557139"},{"star":"准五星商户","city":"上海","reviewCount":"59","avgPrice":"￥32","name":"全日志 FULLTIME COFFEE","location":"打浦桥","type":"咖啡厅","addr":"徐家汇路618号日月光中心地下2层亚洲馆29号","url":"http://www.dianping.com/shop/69945601"},{"star":"准五星商户","city":"上海","reviewCount":"671","avgPrice":"￥198","name":"焱格格蔬食料理火锅(星空明星店)","location":"虹桥","type":"素菜","addr":"水城路18号星空广场二楼A区202-204（水城路必胜客楼上，近虹桥路）","url":"http://www.dianping.com/shop/44237720"},{"star":"准五星商户","city":"上海","reviewCount":"1713","avgPrice":"￥87","name":"崇味牛排(万达广场宝山店)","location":"庙行/共康","type":"西餐","addr":"宝山万达广场金街2楼248号","url":"http://www.dianping.com/shop/22355808"},{"star":"四星商户","city":"上海","reviewCount":"3456","avgPrice":"￥25","name":"星星炸鸡(日月光中心广场店)","location":"打浦桥","type":"小吃快餐","addr":"徐家汇路618号日月光中心广场B2楼","url":"http://www.dianping.com/shop/18151858"},{"star":"准五星商户","city":"上海","reviewCount":"252","avgPrice":"￥69","name":"必胜客(顾村正大店)","location":"顾村公园","type":"西餐","addr":"上海市陆翔路111弄正大乐城商铺","url":"http://www.dianping.com/shop/38103632"}]
[{"star":"五星商户","city":"上海","reviewCount":"759","avgPrice":"￥112","name":"南瓜车造型(金沙江路店)","location":"月星环球港","type":"美发","addr":"金沙江路1685号巴黎春天4楼402-1","url":"http://www.dianping.com/shop/67385435"},{"star":"五星商户","city":"上海","reviewCount":"287","avgPrice":"￥118","name":"必胜客(上海中心店)","location":"陆家嘴","type":"西餐","addr":"上海市银城中路501号B2-1室","url":"http://www.dianping.com/shop/74602502"},{"star":"准五星商户","city":"上海","reviewCount":"1564","avgPrice":"￥317","name":"彩箸铁板烧·日本料理","location":"虹桥","type":"日本菜","addr":"虹桥路1665号星空广场6楼A区602-603号","url":"http://www.dianping.com/shop/21334012"},{"star":"准五星商户","city":"上海","reviewCount":"4550","avgPrice":"￥119","name":"高兴一锅 汕头牛肉火锅(上海虹口...","location":"虹口足球场","type":"火锅","addr":"东江湾路444号虹口足球场5号门","url":"http://www.dianping.com/shop/24291947"},{"star":"准五星商户","city":"上海","reviewCount":"2532","avgPrice":"￥92","name":"喜来稀肉(万达广场宝山店)","location":"庙行/共康","type":"韩国料理","addr":"一二八纪念路988弄万达广场金街2层240-241","url":"http://www.dianping.com/shop/23657253"},{"star":"准五星商户","city":"上海","reviewCount":"2585","avgPrice":"￥176","name":"海鲜后宫","location":"通河/泗塘","type":"日本菜","addr":"宝山万达金街246号","url":"http://www.dianping.com/shop/17184484"},{"star":"准五星商户","city":"上海","reviewCount":"851","avgPrice":"￥81","name":"太福水煮鱼(亿丰时代广场店)","location":"三林地区","type":"川菜","addr":"云台路亿丰时代广场2F208号","url":"http://www.dianping.com/shop/44014085"},{"star":"准五星商户","city":"上海","reviewCount":"339","avgPrice":"￥86","name":"必胜客(香港广场店)","location":"淮海路","type":"西餐","addr":"上海市淮海中路282号香港广场商场北座NL3-07室","url":"http://www.dianping.com/shop/65930766"},{"star":"准五星商户","city":"上海","reviewCount":"223","avgPrice":"￥195","name":"大桶大足浴(张江路店)","location":"张江","type":"足疗按摩","addr":"张江路625号","url":"http://www.dianping.com/shop/24503030"},{"star":"四星商户","city":"上海","reviewCount":"4018","avgPrice":"￥51","name":"彩泥·滇游记-云南过桥米线(龙之...","location":"虹口足球场","type":"云南菜","addr":"西江湾路388号龙之梦购物中心B2层","url":"http://www.dianping.com/shop/43557139"},{"star":"准五星商户","city":"上海","reviewCount":"59","avgPrice":"￥32","name":"全日志 FULLTIME COFFEE","location":"打浦桥","type":"咖啡厅","addr":"徐家汇路618号日月光中心地下2层亚洲馆29号","url":"http://www.dianping.com/shop/69945601"},{"star":"准五星商户","city":"上海","reviewCount":"671","avgPrice":"￥198","name":"焱格格蔬食料理火锅(星空明星店)","location":"虹桥","type":"素菜","addr":"水城路18号星空广场二楼A区202-204（水城路必胜客楼上，近虹桥路）","url":"http://www.dianping.com/shop/44237720"},{"star":"准五星商户","city":"上海","reviewCount":"1713","avgPrice":"￥87","name":"崇味牛排(万达广场宝山店)","location":"庙行/共康","type":"西餐","addr":"宝山万达广场金街2楼248号","url":"http://www.dianping.com/shop/22355808"},{"star":"四星商户","city":"上海","reviewCount":"3456","avgPrice":"￥25","name":"星星炸鸡(日月光中心广场店)","location":"打浦桥","type":"小吃快餐","addr":"徐家汇路618号日月光中心广场B2楼","url":"http://www.dianping.com/shop/18151858"},{"star":"准五星商户","city":"上海","reviewCount":"252","avgPrice":"￥69","name":"必胜客(顾村正大店)","location":"顾村公园","type":"西餐","addr":"上海市陆翔路111弄正大乐城商铺","url":"http://www.dianping.com/shop/38103632"}]
[{"star":"五星商户","city":"上海","reviewCount":"759","avgPrice":"￥112","name":"南瓜车造型(金沙江路店)","location":"月星环球港","type":"美发","addr":"金沙江路1685号巴黎春天4楼402-1","url":"http://www.dianping.com/shop/67385435"},{"star":"五星商户","city":"上海","reviewCount":"287","avgPrice":"￥118","name":"必胜客(上海中心店)","location":"陆家嘴","type":"西餐","addr":"上海市银城中路501号B2-1室","url":"http://www.dianping.com/shop/74602502"},{"star":"准五星商户","city":"上海","reviewCount":"1564","avgPrice":"￥317","name":"彩箸铁板烧·日本料理","location":"虹桥","type":"日本菜","addr":"虹桥路1665号星空广场6楼A区602-603号","url":"http://www.dianping.com/shop/21334012"},{"star":"准五星商户","city":"上海","reviewCount":"4550","avgPrice":"￥119","name":"高兴一锅 汕头牛肉火锅(上海虹口...","location":"虹口足球场","type":"火锅","addr":"东江湾路444号虹口足球场5号门","url":"http://www.dianping.com/shop/24291947"},{"star":"准五星商户","city":"上海","reviewCount":"2532","avgPrice":"￥92","name":"喜来稀肉(万达广场宝山店)","location":"庙行/共康","type":"韩国料理","addr":"一二八纪念路988弄万达广场金街2层240-241","url":"http://www.dianping.com/shop/23657253"},{"star":"准五星商户","city":"上海","reviewCount":"2585","avgPrice":"￥176","name":"海鲜后宫","location":"通河/泗塘","type":"日本菜","addr":"宝山万达金街246号","url":"http://www.dianping.com/shop/17184484"},{"star":"准五星商户","city":"上海","reviewCount":"851","avgPrice":"￥81","name":"太福水煮鱼(亿丰时代广场店)","location":"三林地区","type":"川菜","addr":"云台路亿丰时代广场2F208号","url":"http://www.dianping.com/shop/44014085"},{"star":"准五星商户","city":"上海","reviewCount":"339","avgPrice":"￥86","name":"必胜客(香港广场店)","location":"淮海路","type":"西餐","addr":"上海市淮海中路282号香港广场商场北座NL3-07室","url":"http://www.dianping.com/shop/65930766"},{"star":"准五星商户","city":"上海","reviewCount":"223","avgPrice":"￥195","name":"大桶大足浴(张江路店)","location":"张江","type":"足疗按摩","addr":"张江路625号","url":"http://www.dianping.com/shop/24503030"},{"star":"四星商户","city":"上海","reviewCount":"4018","avgPrice":"￥51","name":"彩泥·滇游记-云南过桥米线(龙之...","location":"虹口足球场","type":"云南菜","addr":"西江湾路388号龙之梦购物中心B2层","url":"http://www.dianping.com/shop/43557139"},{"star":"准五星商户","city":"上海","reviewCount":"59","avgPrice":"￥32","name":"全日志 FULLTIME COFFEE","location":"打浦桥","type":"咖啡厅","addr":"徐家汇路618号日月光中心地下2层亚洲馆29号","url":"http://www.dianping.com/shop/69945601"},{"star":"准五星商户","city":"上海","reviewCount":"671","avgPrice":"￥198","name":"焱格格蔬食料理火锅(星空明星店)","location":"虹桥","type":"素菜","addr":"水城路18号星空广场二楼A区202-204（水城路必胜客楼上，近虹桥路）","url":"http://www.dianping.com/shop/44237720"},{"star":"准五星商户","city":"上海","reviewCount":"1713","avgPrice":"￥87","name":"崇味牛排(万达广场宝山店)","location":"庙行/共康","type":"西餐","addr":"宝山万达广场金街2楼248号","url":"http://www.dianping.com/shop/22355808"},{"star":"四星商户","city":"上海","reviewCount":"3456","avgPrice":"￥25","name":"星星炸鸡(日月光中心广场店)","location":"打浦桥","type":"小吃快餐","addr":"徐家汇路618号日月光中心广场B2楼","url":"http://www.dianping.com/shop/18151858"},{"star":"准五星商户","city":"上海","reviewCount":"252","avgPrice":"￥69","name":"必胜客(顾村正大店)","location":"顾村公园","type":"西餐","addr":"上海市陆翔路111弄正大乐城商铺","url":"http://www.dianping.com/shop/38103632"}]
[{"star":"五星商户","city":"上海","reviewCount":"759","avgPrice":"￥112","name":"南瓜车造型(金沙江路店)","location":"月星环球港","type":"美发","addr":"金沙江路1685号巴黎春天4楼402-1","url":"http://www.dianping.com/shop/67385435"},{"star":"五星商户","city":"上海","reviewCount":"287","avgPrice":"￥118","name":"必胜客(上海中心店)","location":"陆家嘴","type":"西餐","addr":"上海市银城中路501号B2-1室","url":"http://www.dianping.com/shop/74602502"},{"star":"准五星商户","city":"上海","reviewCount":"1564","avgPrice":"￥317","name":"彩箸铁板烧·日本料理","location":"虹桥","type":"日本菜","addr":"虹桥路1665号星空广场6楼A区602-603号","url":"http://www.dianping.com/shop/21334012"},{"star":"准五星商户","city":"上海","reviewCount":"4550","avgPrice":"￥119","name":"高兴一锅 汕头牛肉火锅(上海虹口...","location":"虹口足球场","type":"火锅","addr":"东江湾路444号虹口足球场5号门","url":"http://www.dianping.com/shop/24291947"},{"star":"准五星商户","city":"上海","reviewCount":"2532","avgPrice":"￥92","name":"喜来稀肉(万达广场宝山店)","location":"庙行/共康","type":"韩国料理","addr":"一二八纪念路988弄万达广场金街2层240-241","url":"http://www.dianping.com/shop/23657253"},{"star":"准五星商户","city":"上海","reviewCount":"2585","avgPrice":"￥176","name":"海鲜后宫","location":"通河/泗塘","type":"日本菜","addr":"宝山万达金街246号","url":"http://www.dianping.com/shop/17184484"},{"star":"准五星商户","city":"上海","reviewCount":"851","avgPrice":"￥81","name":"太福水煮鱼(亿丰时代广场店)","location":"三林地区","type":"川菜","addr":"云台路亿丰时代广场2F208号","url":"http://www.dianping.com/shop/44014085"},{"star":"准五星商户","city":"上海","reviewCount":"339","avgPrice":"￥86","name":"必胜客(香港广场店)","location":"淮海路","type":"西餐","addr":"上海市淮海中路282号香港广场商场北座NL3-07室","url":"http://www.dianping.com/shop/65930766"},{"star":"准五星商户","city":"上海","reviewCount":"223","avgPrice":"￥195","name":"大桶大足浴(张江路店)","location":"张江","type":"足疗按摩","addr":"张江路625号","url":"http://www.dianping.com/shop/24503030"},{"star":"四星商户","city":"上海","reviewCount":"4018","avgPrice":"￥51","name":"彩泥·滇游记-云南过桥米线(龙之...","location":"虹口足球场","type":"云南菜","addr":"西江湾路388号龙之梦购物中心B2层","url":"http://www.dianping.com/shop/43557139"},{"star":"准五星商户","city":"上海","reviewCount":"59","avgPrice":"￥32","name":"全日志 FULLTIME COFFEE","location":"打浦桥","type":"咖啡厅","addr":"徐家汇路618号日月光中心地下2层亚洲馆29号","url":"http://www.dianping.com/shop/69945601"},{"star":"准五星商户","city":"上海","reviewCount":"671","avgPrice":"￥198","name":"焱格格蔬食料理火锅(星空明星店)","location":"虹桥","type":"素菜","addr":"水城路18号星空广场二楼A区202-204（水城路必胜客楼上，近虹桥路）","url":"http://www.dianping.com/shop/44237720"},{"star":"准五星商户","city":"上海","reviewCount":"1713","avgPrice":"￥87","name":"崇味牛排(万达广场宝山店)","location":"庙行/共康","type":"西餐","addr":"宝山万达广场金街2楼248号","url":"http://www.dianping.com/shop/22355808"},{"star":"四星商户","city":"上海","reviewCount":"3456","avgPrice":"￥25","name":"星星炸鸡(日月光中心广场店)","location":"打浦桥","type":"小吃快餐","addr":"徐家汇路618号日月光中心广场B2楼","url":"http://www.dianping.com/shop/18151858"},{"star":"准五星商户","city":"上海","reviewCount":"252","avgPrice":"￥69","name":"必胜客(顾村正大店)","location":"顾村公园","type":"西餐","addr":"上海市陆翔路111弄正大乐城商铺","url":"http://www.dianping.com/shop/38103632"}]
[{"star":"五星商户","city":"上海","reviewCount":"759","avgPrice":"￥112","name":"南瓜车造型(金沙江路店)","location":"月星环球港","type":"美发","addr":"金沙江路1685号巴黎春天4楼402-1","url":"http://www.dianping.com/shop/67385435"},{"star":"五星商户","city":"上海","reviewCount":"287","avgPrice":"￥118","name":"必胜客(上海中心店)","location":"陆家嘴","type":"西餐","addr":"上海市银城中路501号B2-1室","url":"http://www.dianping.com/shop/74602502"},{"star":"准五星商户","city":"上海","reviewCount":"1564","avgPrice":"￥317","name":"彩箸铁板烧·日本料理","location":"虹桥","type":"日本菜","addr":"虹桥路1665号星空广场6楼A区602-603号","url":"http://www.dianping.com/shop/21334012"},{"star":"准五星商户","city":"上海","reviewCount":"4550","avgPrice":"￥119","name":"高兴一锅 汕头牛肉火锅(上海虹口...","location":"虹口足球场","type":"火锅","addr":"东江湾路444号虹口足球场5号门","url":"http://www.dianping.com/shop/24291947"},{"star":"准五星商户","city":"上海","reviewCount":"2532","avgPrice":"￥92","name":"喜来稀肉(万达广场宝山店)","location":"庙行/共康","type":"韩国料理","addr":"一二八纪念路988弄万达广场金街2层240-241","url":"http://www.dianping.com/shop/23657253"},{"star":"准五星商户","city":"上海","reviewCount":"2585","avgPrice":"￥176","name":"海鲜后宫","location":"通河/泗塘","type":"日本菜","addr":"宝山万达金街246号","url":"http://www.dianping.com/shop/17184484"},{"star":"准五星商户","city":"上海","reviewCount":"851","avgPrice":"￥81","name":"太福水煮鱼(亿丰时代广场店)","location":"三林地区","type":"川菜","addr":"云台路亿丰时代广场2F208号","url":"http://www.dianping.com/shop/44014085"},{"star":"准五星商户","city":"上海","reviewCount":"339","avgPrice":"￥86","name":"必胜客(香港广场店)","location":"淮海路","type":"西餐","addr":"上海市淮海中路282号香港广场商场北座NL3-07室","url":"http://www.dianping.com/shop/65930766"},{"star":"准五星商户","city":"上海","reviewCount":"223","avgPrice":"￥195","name":"大桶大足浴(张江路店)","location":"张江","type":"足疗按摩","addr":"张江路625号","url":"http://www.dianping.com/shop/24503030"},{"star":"四星商户","city":"上海","reviewCount":"4018","avgPrice":"￥51","name":"彩泥·滇游记-云南过桥米线(龙之...","location":"虹口足球场","type":"云南菜","addr":"西江湾路388号龙之梦购物中心B2层","url":"http://www.dianping.com/shop/43557139"},{"star":"准五星商户","city":"上海","reviewCount":"59","avgPrice":"￥32","name":"全日志 FULLTIME COFFEE","location":"打浦桥","type":"咖啡厅","addr":"徐家汇路618号日月光中心地下2层亚洲馆29号","url":"http://www.dianping.com/shop/69945601"},{"star":"准五星商户","city":"上海","reviewCount":"671","avgPrice":"￥198","name":"焱格格蔬食料理火锅(星空明星店)","location":"虹桥","type":"素菜","addr":"水城路18号星空广场二楼A区202-204（水城路必胜客楼上，近虹桥路）","url":"http://www.dianping.com/shop/44237720"},{"star":"准五星商户","city":"上海","reviewCount":"1713","avgPrice":"￥87","name":"崇味牛排(万达广场宝山店)","location":"庙行/共康","type":"西餐","addr":"宝山万达广场金街2楼248号","url":"http://www.dianping.com/shop/22355808"},{"star":"四星商户","city":"上海","reviewCount":"3456","avgPrice":"￥25","name":"星星炸鸡(日月光中心广场店)","location":"打浦桥","type":"小吃快餐","addr":"徐家汇路618号日月光中心广场B2楼","url":"http://www.dianping.com/shop/18151858"},{"star":"准五星商户","city":"上海","reviewCount":"252","avgPrice":"￥69","name":"必胜客(顾村正大店)","location":"顾村公园","type":"西餐","addr":"上海市陆翔路111弄正大乐城商铺","url":"http://www.dianping.com/shop/38103632"}]
[{"star":"五星商户","city":"上海","reviewCount":"759","avgPrice":"￥112","name":"南瓜车造型(金沙江路店)","location":"月星环球港","type":"美发","addr":"金沙江路1685号巴黎春天4楼402-1","url":"http://www.dianping.com/shop/67385435"},{"star":"五星商户","city":"上海","reviewCount":"287","avgPrice":"￥118","name":"必胜客(上海中心店)","location":"陆家嘴","type":"西餐","addr":"上海市银城中路501号B2-1室","url":"http://www.dianping.com/shop/74602502"},{"star":"准五星商户","city":"上海","reviewCount":"1564","avgPrice":"￥317","name":"彩箸铁板烧·日本料理","location":"虹桥","type":"日本菜","addr":"虹桥路1665号星空广场6楼A区602-603号","url":"http://www.dianping.com/shop/21334012"},{"star":"准五星商户","city":"上海","reviewCount":"4550","avgPrice":"￥119","name":"高兴一锅 汕头牛肉火锅(上海虹口...","location":"虹口足球场","type":"火锅","addr":"东江湾路444号虹口足球场5号门","url":"http://www.dianping.com/shop/24291947"},{"star":"准五星商户","city":"上海","reviewCount":"2532","avgPrice":"￥92","name":"喜来稀肉(万达广场宝山店)","location":"庙行/共康","type":"韩国料理","addr":"一二八纪念路988弄万达广场金街2层240-241","url":"http://www.dianping.com/shop/23657253"},{"star":"准五星商户","city":"上海","reviewCount":"2585","avgPrice":"￥176","name":"海鲜后宫","location":"通河/泗塘","type":"日本菜","addr":"宝山万达金街246号","url":"http://www.dianping.com/shop/17184484"},{"star":"准五星商户","city":"上海","reviewCount":"851","avgPrice":"￥81","name":"太福水煮鱼(亿丰时代广场店)","location":"三林地区","type":"川菜","addr":"云台路亿丰时代广场2F208号","url":"http://www.dianping.com/shop/44014085"},{"star":"准五星商户","city":"上海","reviewCount":"339","avgPrice":"￥86","name":"必胜客(香港广场店)","location":"淮海路","type":"西餐","addr":"上海市淮海中路282号香港广场商场北座NL3-07室","url":"http://www.dianping.com/shop/65930766"},{"star":"准五星商户","city":"上海","reviewCount":"223","avgPrice":"￥195","name":"大桶大足浴(张江路店)","location":"张江","type":"足疗按摩","addr":"张江路625号","url":"http://www.dianping.com/shop/24503030"},{"star":"四星商户","city":"上海","reviewCount":"4018","avgPrice":"￥51","name":"彩泥·滇游记-云南过桥米线(龙之...","location":"虹口足球场","type":"云南菜","addr":"西江湾路388号龙之梦购物中心B2层","url":"http://www.dianping.com/shop/43557139"},{"star":"准五星商户","city":"上海","reviewCount":"59","avgPrice":"￥32","name":"全日志 FULLTIME COFFEE","location":"打浦桥","type":"咖啡厅","addr":"徐家汇路618号日月光中心地下2层亚洲馆29号","url":"http://www.dianping.com/shop/69945601"},{"star":"准五星商户","city":"上海","reviewCount":"671","avgPrice":"￥198","name":"焱格格蔬食料理火锅(星空明星店)","location":"虹桥","type":"素菜","addr":"水城路18号星空广场二楼A区202-204（水城路必胜客楼上，近虹桥路）","url":"http://www.dianping.com/shop/44237720"},{"star":"准五星商户","city":"上海","reviewCount":"1713","avgPrice":"￥87","name":"崇味牛排(万达广场宝山店)","location":"庙行/共康","type":"西餐","addr":"宝山万达广场金街2楼248号","url":"http://www.dianping.com/shop/22355808"},{"star":"四星商户","city":"上海","reviewCount":"3456","avgPrice":"￥25","name":"星星炸鸡(日月光中心广场店)","location":"打浦桥","type":"小吃快餐","addr":"徐家汇路618号日月光中心广场B2楼","url":"http://www.dianping.com/shop/18151858"},{"star":"准五星商户","city":"上海","reviewCount":"252","avgPrice":"￥69","name":"必胜客(顾村正大店)","location":"顾村公园","type":"西餐","addr":"上海市陆翔路111弄正大乐城商铺","url":"http://www.dianping.com/shop/38103632"}]
[{"star":"五星商户","city":"上海","reviewCount":"759","avgPrice":"￥112","name":"南瓜车造型(金沙江路店)","location":"月星环球港","type":"美发","addr":"金沙江路1685号巴黎春天4楼402-1","url":"http://www.dianping.com/shop/67385435"},{"star":"五星商户","city":"上海","reviewCount":"287","avgPrice":"￥118","name":"必胜客(上海中心店)","location":"陆家嘴","type":"西餐","addr":"上海市银城中路501号B2-1室","url":"http://www.dianping.com/shop/74602502"},{"star":"准五星商户","city":"上海","reviewCount":"1564","avgPrice":"￥317","name":"彩箸铁板烧·日本料理","location":"虹桥","type":"日本菜","addr":"虹桥路1665号星空广场6楼A区602-603号","url":"http://www.dianping.com/shop/21334012"},{"star":"准五星商户","city":"上海","reviewCount":"4550","avgPrice":"￥119","name":"高兴一锅 汕头牛肉火锅(上海虹口...","location":"虹口足球场","type":"火锅","addr":"东江湾路444号虹口足球场5号门","url":"http://www.dianping.com/shop/24291947"},{"star":"准五星商户","city":"上海","reviewCount":"2532","avgPrice":"￥92","name":"喜来稀肉(万达广场宝山店)","location":"庙行/共康","type":"韩国料理","addr":"一二八纪念路988弄万达广场金街2层240-241","url":"http://www.dianping.com/shop/23657253"},{"star":"准五星商户","city":"上海","reviewCount":"2585","avgPrice":"￥176","name":"海鲜后宫","location":"通河/泗塘","type":"日本菜","addr":"宝山万达金街246号","url":"http://www.dianping.com/shop/17184484"},{"star":"准五星商户","city":"上海","reviewCount":"851","avgPrice":"￥81","name":"太福水煮鱼(亿丰时代广场店)","location":"三林地区","type":"川菜","addr":"云台路亿丰时代广场2F208号","url":"http://www.dianping.com/shop/44014085"},{"star":"准五星商户","city":"上海","reviewCount":"339","avgPrice":"￥86","name":"必胜客(香港广场店)","location":"淮海路","type":"西餐","addr":"上海市淮海中路282号香港广场商场北座NL3-07室","url":"http://www.dianping.com/shop/65930766"},{"star":"准五星商户","city":"上海","reviewCount":"223","avgPrice":"￥195","name":"大桶大足浴(张江路店)","location":"张江","type":"足疗按摩","addr":"张江路625号","url":"http://www.dianping.com/shop/24503030"},{"star":"四星商户","city":"上海","reviewCount":"4018","avgPrice":"￥51","name":"彩泥·滇游记-云南过桥米线(龙之...","location":"虹口足球场","type":"云南菜","addr":"西江湾路388号龙之梦购物中心B2层","url":"http://www.dianping.com/shop/43557139"},{"star":"准五星商户","city":"上海","reviewCount":"59","avgPrice":"￥32","name":"全日志 FULLTIME COFFEE","location":"打浦桥","type":"咖啡厅","addr":"徐家汇路618号日月光中心地下2层亚洲馆29号","url":"http://www.dianping.com/shop/69945601"},{"star":"准五星商户","city":"上海","reviewCount":"671","avgPrice":"￥198","name":"焱格格蔬食料理火锅(星空明星店)","location":"虹桥","type":"素菜","addr":"水城路18号星空广场二楼A区202-204（水城路必胜客楼上，近虹桥路）","url":"http://www.dianping.com/shop/44237720"},{"star":"准五星商户","city":"上海","reviewCount":"1713","avgPrice":"￥87","name":"崇味牛排(万达广场宝山店)","location":"庙行/共康","type":"西餐","addr":"宝山万达广场金街2楼248号","url":"http://www.dianping.com/shop/22355808"},{"star":"四星商户","city":"上海","reviewCount":"3456","avgPrice":"￥25","name":"星星炸鸡(日月光中心广场店)","location":"打浦桥","type":"小吃快餐","addr":"徐家汇路618号日月光中心广场B2楼","url":"http://www.dianping.com/shop/18151858"},{"star":"准五星商户","city":"上海","reviewCount":"252","avgPrice":"￥69","name":"必胜客(顾村正大店)","location":"顾村公园","type":"西餐","addr":"上海市陆翔路111弄正大乐城商铺","url":"http://www.dianping.com/shop/38103632"}]
[{"star":"五星商户","city":"上海","reviewCount":"759","avgPrice":"￥112","name":"南瓜车造型(金沙江路店)","location":"月星环球港","type":"美发","addr":"金沙江路1685号巴黎春天4楼402-1","url":"http://www.dianping.com/shop/67385435"},{"star":"五星商户","city":"上海","reviewCount":"287","avgPrice":"￥118","name":"必胜客(上海中心店)","location":"陆家嘴","type":"西餐","addr":"上海市银城中路501号B2-1室","url":"http://www.dianping.com/shop/74602502"},{"star":"准五星商户","city":"上海","reviewCount":"1564","avgPrice":"￥317","name":"彩箸铁板烧·日本料理","location":"虹桥","type":"日本菜","addr":"虹桥路1665号星空广场6楼A区602-603号","url":"http://www.dianping.com/shop/21334012"},{"star":"准五星商户","city":"上海","reviewCount":"4550","avgPrice":"￥119","name":"高兴一锅 汕头牛肉火锅(上海虹口...","location":"虹口足球场","type":"火锅","addr":"东江湾路444号虹口足球场5号门","url":"http://www.dianping.com/shop/24291947"},{"star":"准五星商户","city":"上海","reviewCount":"2532","avgPrice":"￥92","name":"喜来稀肉(万达广场宝山店)","location":"庙行/共康","type":"韩国料理","addr":"一二八纪念路988弄万达广场金街2层240-241","url":"http://www.dianping.com/shop/23657253"},{"star":"准五星商户","city":"上海","reviewCount":"2585","avgPrice":"￥176","name":"海鲜后宫","location":"通河/泗塘","type":"日本菜","addr":"宝山万达金街246号","url":"http://www.dianping.com/shop/17184484"},{"star":"准五星商户","city":"上海","reviewCount":"851","avgPrice":"￥81","name":"太福水煮鱼(亿丰时代广场店)","location":"三林地区","type":"川菜","addr":"云台路亿丰时代广场2F208号","url":"http://www.dianping.com/shop/44014085"},{"star":"准五星商户","city":"上海","reviewCount":"339","avgPrice":"￥86","name":"必胜客(香港广场店)","location":"淮海路","type":"西餐","addr":"上海市淮海中路282号香港广场商场北座NL3-07室","url":"http://www.dianping.com/shop/65930766"},{"star":"准五星商户","city":"上海","reviewCount":"223","avgPrice":"￥195","name":"大桶大足浴(张江路店)","location":"张江","type":"足疗按摩","addr":"张江路625号","url":"http://www.dianping.com/shop/24503030"},{"star":"四星商户","city":"上海","reviewCount":"4018","avgPrice":"￥51","name":"彩泥·滇游记-云南过桥米线(龙之...","location":"虹口足球场","type":"云南菜","addr":"西江湾路388号龙之梦购物中心B2层","url":"http://www.dianping.com/shop/43557139"},{"star":"准五星商户","city":"上海","reviewCount":"59","avgPrice":"￥32","name":"全日志 FULLTIME COFFEE","location":"打浦桥","type":"咖啡厅","addr":"徐家汇路618号日月光中心地下2层亚洲馆29号","url":"http://www.dianping.com/shop/69945601"},{"star":"准五星商户","city":"上海","reviewCount":"671","avgPrice":"￥198","name":"焱格格蔬食料理火锅(星空明星店)","location":"虹桥","type":"素菜","addr":"水城路18号星空广场二楼A区202-204（水城路必胜客楼上，近虹桥路）","url":"http://www.dianping.com/shop/44237720"},{"star":"准五星商户","city":"上海","reviewCount":"1713","avgPrice":"￥87","name":"崇味牛排(万达广场宝山店)","location":"庙行/共康","type":"西餐","addr":"宝山万达广场金街2楼248号","url":"http://www.dianping.com/shop/22355808"},{"star":"四星商户","city":"上海","reviewCount":"3456","avgPrice":"￥25","name":"星星炸鸡(日月光中心广场店)","location":"打浦桥","type":"小吃快餐","addr":"徐家汇路618号日月光中心广场B2楼","url":"http://www.dianping.com/shop/18151858"},{"star":"准五星商户","city":"上海","reviewCount":"252","avgPrice":"￥69","name":"必胜客(顾村正大店)","location":"顾村公园","type":"西餐","addr":"上海市陆翔路111弄正大乐城商铺","url":"http://www.dianping.com/shop/38103632"}]
